{
  "locations": [
    {
      "id": "TAGDpClxeEQOQYOqfU6V",
      "name": "Kraków",
      "coordinates": {
        "lat": 50.0682709,
        "lng": 19.9601472
      },
      "importance": 1
    },
    {
      "id": "hoqJiGMkHJkY8pV7U8jM",
      "name": "Berlin",
      "coordinates": {
        "lat": 52.5065133,
        "lng": 13.1445545
      },
      "importance": 1
    },
    {
      "id": "gYqwBPgiz2AsoMsorF5P",
      "name": "Białystok",
      "coordinates": {
        "lat": 53.1275431,
        "lng": 23.0159837
      },
      "importance": 1
    },
    {
      "id": "6TCJM3A8IeIgXJMpmNqG",
      "name": "Warszawa",
      "coordinates": {
        "lat": 52.2326063,
        "lng": 20.7810167
      },
      "importance": 1
    },
    {
      "id": "h2CgwbxaoyQf3NyUoJY0",
      "name": "Paryż",
      "coordinates": {
        "lat": 48.8588377,
        "lng": 2.2770205
      },
      "importance": 1
    },
    {
      "id": "M1Bk3odOTLQWBqpnl0uU",
      "name": "Barcelona",
      "coordinates": {
        "lat": 41.3947688,
        "lng": 2.0787282
      },
      "importance": 1
    },
    {
      "id": "4wDtmZCq30RRcgb88DYY",
      "name": "Amsterdam",
      "coordinates": {
        "lat": 52.3546449,
        "lng": 4.8339211
      },
      "importance": 1
    },
    {
      "id": "rBhGcJvs2FcSIypRVk6d",
      "name": "Praga",
      "coordinates": {
        "lat": 50.073658,
        "lng": 14.418540
      },
      "importance": 7
    }
  ]
}